[{
    "stationId": 62,
    "id": "OM01",
    "name": "大井町",
    "lon": 139.735025,
    "lat": 35.607535,
    "lineId": "om"
}, {
    "stationId": 63,
    "id": "OM02",
    "name": "下神明",
    "lon": 139.726256,
    "lat": 35.608704,
    "lineId": "om"
}, {
    "stationId": 64,
    "id": "OM03",
    "name": "戸越公園",
    "lon": 139.718159,
    "lat": 35.608856,
    "lineId": "om"
}, {
    "stationId": 65,
    "id": "OM04",
    "name": "中延",
    "lon": 139.712526,
    "lat": 35.60571,
    "lineId": "om"
}, {
    "stationId": 66,
    "id": "OM05",
    "name": "荏原町",
    "lon": 139.707571,
    "lat": 35.60382,
    "lineId": "om"
}, {
    "stationId": 67,
    "id": "OM06",
    "name": "旗の台",
    "lon": 139.702286,
    "lat": 35.604923,
    "lineId": "om"
}, {
    "stationId": 68,
    "id": "OM07",
    "name": "北千束",
    "lon": 139.693303,
    "lat": 35.606311,
    "lineId": "om"
}, {
    "stationId": 27,
    "id": "OM08",
    "name": "大岡山",
    "lon": 139.685909,
    "lat": 35.607456,
    "lineId": "om"
}, {
    "stationId": 70,
    "id": "OM09",
    "name": "緑が丘",
    "lon": 139.679482,
    "lat": 35.60638,
    "lineId": "om"
}, {
    "stationId": 7,
    "id": "OM10",
    "name": "自由が丘",
    "lon": 139.668664,
    "lat": 35.607224,
    "lineId": "om"
}, {
    "stationId": 72,
    "id": "OM11",
    "name": "九品仏",
    "lon": 139.660992,
    "lat": 35.60538,
    "lineId": "om"
}, {
    "stationId": 73,
    "id": "OM12",
    "name": "尾山台",
    "lon": 139.653862,
    "lat": 35.606971,
    "lineId": "om"
}, {
    "stationId": 74,
    "id": "OM13",
    "name": "等々力",
    "lon": 139.647938,
    "lat": 35.608369,
    "lineId": "om"
}, {
    "stationId": 75,
    "id": "OM14",
    "name": "上野毛",
    "lon": 139.638917,
    "lat": 35.611957,
    "lineId": "om"
}, {
    "stationId": 41,
    "id": "OM15",
    "name": "二子玉川",
    "lon": 139.626685,
    "lat": 35.611788,
    "lineId": "om"
}, {
    "stationId": 42,
    "id": "OM16",
    "name": "二子新地",
    "lon": 139.622338,
    "lat": 35.606994,
    "lineId": "om"
}, {
    "stationId": 43,
    "id": "OM17",
    "name": "高津",
    "lon": 139.616934,
    "lat": 35.603248,
    "lineId": "om"
}, {
    "stationId": 44,
    "id": "OM18",
    "name": "溝の口",
    "lon": 139.610487,
    "lat": 35.59984,
    "lineId": "om"
}]