[
    {
        "stationId": 37,
        "id": "SG01",
        "name": "三軒茶屋",
        "lon": 139.670156,
        "lat": 35.643716,
        "lineId": "sg"
    }, {
        "stationId": 103,
        "id": "SG02",
        "name": "西太子堂",
        "lon": 139.666382,
        "lat": 35.644545,
        "lineId": "sg"
    }, {
        "stationId": 104,
        "id": "SG03",
        "name": "若林",
        "lon": 139.659911,
        "lat": 35.645933,
        "lineId": "sg"
    }, {
        "stationId": 105,
        "id": "SG04",
        "name": "松陰神社前",
        "lon": 139.655211,
        "lat": 35.643947,
        "lineId": "sg"
    }, {
        "stationId": 106,
        "id": "SG05",
        "name": "世田谷",
        "lon": 139.650945,
        "lat": 35.643564,
        "lineId": "sg"
    }, {
        "stationId": 107,
        "id": "SG06",
        "name": "上町",
        "lon": 139.646276,
        "lat": 35.643656,
        "lineId": "sg"
    }, {
        "stationId": 108,
        "id": "SG07",
        "name": "宮の坂",
        "lon": 139.64494,
        "lat": 35.647508,
        "lineId": "sg"
    }, {
        "stationId": 109,
        "id": "SG08",
        "name": "山下",
        "lon": 139.646509,
        "lat": 35.653844,
        "lineId": "sg"
    }, {
        "stationId": 110,
        "id": "SG09",
        "name": "松原",
        "lon": 139.642,
        "lat": 35.660048,
        "lineId": "sg"
    }, {
        "stationId": 111,
        "id": "SG10",
        "name": "下高井戸",
        "lon": 139.641372,
        "lat": 35.66615,
        "lineId": "sg"
    }
]